%  GPST                  latitude(deg) longitude(deg)  height(m)   Q  ns   sdn(m)   sde(m)   sdu(m)  sdne(m)  sdeu(m)  sdun(m) age(s)  ratio
2024/02/01 00:00:00.000   13.021175881   77.570397730   842.1276   5   8   2.0163   1.9197   5.5426   0.6796   0.4063  -1.5630   0.00    0.0
2024/02/01 00:00:30.000   13.021174165   77.570395493   843.3137   5   8   2.0177   1.9178   5.5668   0.6756   0.4433  -1.5615   0.00    0.0
2024/02/01 00:01:00.000   13.021174395   77.570394747   842.6237   5   8   2.0191   1.9160   5.5911   0.6715   0.4775  -1.5599   0.00    0.0
2024/02/01 00:01:30.000   13.021170682   77.570395377   843.5280   5   8   2.0204   1.9143   5.6154   0.6672   0.5095  -1.5580   0.00    0.0
2024/02/01 00:02:00.000   13.021176037   77.570397528   842.1720   5   8   2.0216   1.9126   5.6399   0.6629   0.5396  -1.5560   0.00    0.0
2024/02/01 00:02:30.000   13.021176516   77.570396803   842.4409   5   8   2.0228   1.9109   5.6644   0.6584   0.5682  -1.5537   0.00    0.0
2024/02/01 00:03:00.000   13.021172556   77.570396714   841.7509   5   8   2.0240   1.9093   5.6890   0.6538   0.5954  -1.5513   0.00    0.0
2024/02/01 00:03:30.000   13.021170238   77.570396221   842.1718   5   8   2.0251   1.9078   5.7136   0.6492   0.6214  -1.5487   0.00    0.0
2024/02/01 00:04:00.000   13.021175711   77.570396345   841.9576   5   8   2.0291   1.9069   5.7396   0.6486   0.6510  -1.5416   0.00    0.0
2024/02/01 00:04:30.000   13.021174516   77.570396611   842.3736   5   8   2.0304   1.9054   5.7644   0.6441   0.6751  -1.5383   0.00    0.0
2024/02/01 00:05:00.000   13.021174307   77.570397455   842.9789   5   8   2.0316   1.9040   5.8058   0.6395   0.6955  -1.5340   0.00    0.0
2024/02/01 00:05:30.000   13.021177042   77.570397930   841.8728   5   8   2.0329   1.9027   5.8318   0.6348   0.7181  -1.5300   0.00    0.0
2024/02/01 00:06:00.000   13.021175709   77.570397714   841.5479   5   8   2.0340   1.9013   5.8578   0.6301   0.7400  -1.5258   0.00    0.0
2024/02/01 00:06:30.000   13.021175305   77.570399485   843.2338   5   8   2.0352   1.9000   5.8838   0.6252   0.7613  -1.5214   0.00    0.0
2024/02/01 00:07:00.000   13.021170728   77.570395081   842.1860   5   8   2.0363   1.8988   5.9098   0.6202   0.7819  -1.5167   0.00    0.0
2024/02/01 00:07:30.000   13.021174381   77.570396772   842.5531   5   8   2.0373   1.8976   5.9358   0.6151   0.8020  -1.5118   0.00    0.0
2024/02/01 00:08:00.000   13.021174307   77.570396558   842.5291   5   8   2.0384   1.8964   5.9618   0.6099   0.8215  -1.5066   0.00    0.0
2024/02/01 00:08:30.000   13.021174050   77.570396943   842.5320   5   8   2.0394   1.8953   5.9878   0.6047   0.8405  -1.5012   0.00    0.0
2024/02/01 00:09:00.000   13.021173143   77.570395987   841.9442   5   8   2.0404   1.8942   6.0138   0.5993   0.8590  -1.4955   0.00    0.0
2024/02/01 00:09:30.000   13.021174363   77.570400095   842.6947   5   8   2.0413   1.8931   6.0397   0.5938   0.8771  -1.4895   0.00    0.0
2024/02/01 00:10:00.000   13.021173683   77.570398844   841.6638   5   8   2.0423   1.8921   6.0656   0.5882   0.8947  -1.4832   0.00    0.0
2024/02/01 00:10:30.000   13.021175367   77.570396700   842.6564   5   8   2.0432   1.8911   6.0913   0.5824   0.9118  -1.4767   0.00    0.0
2024/02/01 00:11:00.000   13.021173322   77.570397638   841.9511   5   8   2.0441   1.8901   6.1171   0.5766   0.9286  -1.4699   0.00    0.0
2024/02/01 00:11:30.000   13.021176187   77.570397967   842.5583   5   8   2.0449   1.8892   6.1427   0.5707   0.9449  -1.4628   0.00    0.0
2024/02/01 00:12:00.000   13.021174262   77.570396013   842.0764   5   8   2.0458   1.8883   6.1682   0.5646   0.9608  -1.4554   0.00    0.0
2024/02/01 00:12:30.000   13.021174921   77.570399807   842.7703   5   8   2.0466   1.8875   6.1936   0.5584   0.9764  -1.4477   0.00    0.0
2024/02/01 00:13:00.000   13.021175322   77.570396372   842.1971   5   8   2.0474   1.8866   6.2189   0.5520   0.9915  -1.4397   0.00    0.0
2024/02/01 00:13:30.000   13.021174036   77.570398719   842.0001   5   8   2.0482   1.8859   6.2440   0.5456   1.0063  -1.4314   0.00    0.0
2024/02/01 00:14:00.000   13.021172972   77.570397503   843.0278   5   8   2.0490   1.8851   6.2690   0.5390   1.0207  -1.4227   0.00    0.0
2024/02/01 00:14:30.000   13.021171893   77.570397162   842.5581   5   8   2.0497   1.8844   6.2938   0.5322   1.0347  -1.4138   0.00    0.0
2024/02/01 00:15:00.000   13.021176988   77.570398856   842.8832   5   8   2.0505   1.8837   6.3184   0.5253   1.0484  -1.4045   0.00    0.0
2024/02/01 00:15:30.000   13.021175240   77.570398219   842.2344   5   8   2.0512   1.8831   6.3428   0.5183   1.0617  -1.3950   0.00    0.0
2024/02/01 00:16:00.000   13.021177023   77.570398983   842.0129   5   8   2.0521   1.8889   6.3671   0.5149   1.0766  -1.3848   0.00    0.0
2024/02/01 00:16:30.000   13.021176332   77.570398616   842.6469   5   8   2.0529   1.8888   6.3911   0.5079   1.0893  -1.3745   0.00    0.0
2024/02/01 00:17:00.000   13.021176027   77.570395416   841.3097   5   8   2.0536   1.8887   6.4149   0.5008   1.1017  -1.3639   0.00    0.0
2024/02/01 00:17:30.000   13.021170822   77.570395904   842.3794   5   8   2.0543   1.8886   6.4384   0.4935   1.1138  -1.3529   0.00    0.0
2024/02/01 00:18:00.000   13.021171221   77.570396118   842.1810   5   8   2.0551   1.8886   6.4616   0.4860   1.1255  -1.3416   0.00    0.0
2024/02/01 00:18:30.000   13.021174816   77.570395973   842.1393   5   8   2.0558   1.8886   6.4845   0.4784   1.1368  -1.3299   0.00    0.0
2024/02/01 00:19:00.000   13.021175809   77.570400040   842.0536   5   8   2.0566   1.8886   6.5071   0.4706   1.1478  -1.3178   0.00    0.0
2024/02/01 00:19:30.000   13.021173820   77.570396772   841.5729   5   8   2.0573   1.8887   6.5295   0.4626   1.1584  -1.3053   0.00    0.0
2024/02/01 00:20:00.000   13.021174866   77.570395465   840.5504   5   8   2.0581   1.8887   6.5514   0.4543   1.1687  -1.2925   0.00    0.0
2024/02/01 00:20:30.000   13.021173887   77.570397577   841.3787   5   8   2.0588   1.8889   6.5731   0.4459   1.1786  -1.2793   0.00    0.0
2024/02/01 00:21:00.000   13.021174027   77.570395553   840.9472   5   8   2.0596   1.8890   6.5943   0.4372   1.1881  -1.2657   0.00    0.0
2024/02/01 00:21:30.000   13.021173390   77.570396576   842.9523   5   8   2.0604   1.8892   6.6152   0.4283   1.1973  -1.2517   0.00    0.0
2024/02/01 00:22:00.000   13.021172229   77.570396387   841.9467   5   8   2.0612   1.8894   6.6357   0.4191   1.2061  -1.2372   0.00    0.0
2024/02/01 00:22:30.000   13.021174799   77.570395119   840.9810   5   8   2.0623   1.8992   6.6642   0.4008   1.2405  -1.2275   0.00    0.0
2024/02/01 00:23:00.000   13.021171715   77.570396080   841.4998   5   8   2.0632   1.9002   6.6844   0.3902   1.2503  -1.2126   0.00    0.0
2024/02/01 00:23:30.000   13.021174743   77.570394999   839.7981   5   9   1.8986   1.8322   5.3594   0.7450  -0.6769   1.3521   0.00    0.0
2024/02/01 00:24:00.000   13.021176860   77.570391220   839.9380   5   9   1.8993   1.8323   5.3860   0.7414  -0.6690   1.3657   0.00    0.0
2024/02/01 00:24:30.000   13.021175460   77.570393386   839.2849   5   9   1.9000   1.8325   5.4127   0.7377  -0.6611   1.3791   0.00    0.0
2024/02/01 00:25:00.000   13.021176067   77.570395574   840.2301   5   9   1.9008   1.8327   5.4394   0.7339  -0.6533   1.3924   0.00    0.0
2024/02/01 00:25:30.000   13.021177993   77.570395271   839.5887   5   9   1.9015   1.8330   5.4662   0.7301  -0.6455   1.4055   0.00    0.0
2024/02/01 00:26:00.000   13.021178185   77.570394853   840.0253   5   9   1.9023   1.8333   5.4930   0.7262  -0.6378   1.4184   0.00    0.0
2024/02/01 00:26:30.000   13.021175490   77.570392240   840.6351   5   9   1.9030   1.8336   5.5198   0.7222  -0.6302   1.4312   0.00    0.0
2024/02/01 00:27:00.000   13.021173934   77.570396033   840.0715   5   9   1.9038   1.8340   5.5466   0.7182  -0.6226   1.4438   0.00    0.0
2024/02/01 00:27:30.000   13.021175019   77.570394251   840.2595   5   9   1.9045   1.8344   5.5734   0.7141  -0.6152   1.4562   0.00    0.0
2024/02/01 00:28:00.000   13.021174102   77.570392911   840.3463   5   9   1.9053   1.8348   5.6002   0.7099  -0.6078   1.4684   0.00    0.0
2024/02/01 00:28:30.000   13.021175342   77.570391886   840.1541   5   9   1.9060   1.8353   5.6269   0.7057  -0.6006   1.4805   0.00    0.0
2024/02/01 00:29:00.000   13.021176562   77.570394075   840.8027   5   9   1.9068   1.8359   5.6536   0.7014  -0.5934   1.4923   0.00    0.0
2024/02/01 00:29:30.000   13.021176038   77.570393955   839.7549   5   9   1.9075   1.8364   5.6802   0.6970  -0.5864   1.5039   0.00    0.0
2024/02/01 00:30:00.000   13.021176566   77.570393590   840.0057   5   9   1.9083   1.8370   5.7067   0.6925  -0.5795   1.5153   0.00    0.0
2024/02/01 00:30:30.000   13.021174966   77.570392010   840.4551   5   9   1.9090   1.8377   5.7331   0.6879  -0.5728   1.5265   0.00    0.0
2024/02/01 00:31:00.000   13.021174726   77.570391639   839.8251   5   9   1.9098   1.8384   5.7593   0.6833  -0.5662   1.5375   0.00    0.0
2024/02/01 00:31:30.000   13.021176694   77.570392972   839.4374   5   9   1.9106   1.8391   5.7854   0.6786  -0.5597   1.5483   0.00    0.0
2024/02/01 00:32:00.000   13.021178016   77.570393721   839.7770   5   9   1.9113   1.8399   5.8114   0.6738  -0.5535   1.5588   0.00    0.0
2024/02/01 00:32:30.000   13.021176945   77.570393244   839.4622   5   9   1.9121   1.8407   5.8371   0.6689  -0.5474   1.5690   0.00    0.0
2024/02/01 00:33:00.000   13.021172767   77.570391414   840.4088   5   9   1.9128   1.8415   5.8626   0.6639  -0.5416   1.5791   0.00    0.0
2024/02/01 00:33:30.000   13.021175875   77.570391744   839.5094   5   9   1.9136   1.8424   5.8880   0.6588  -0.5360   1.5889   0.00    0.0
2024/02/01 00:34:00.000   13.021177041   77.570395485   838.9597   5   9   1.9143   1.8433   5.9130   0.6536  -0.5305   1.5984   0.00    0.0
2024/02/01 00:34:30.000   13.021178463   77.570399994   838.2549   5   9   1.9151   1.8443   5.9378   0.6483  -0.5254   1.6076   0.00    0.0
2024/02/01 00:35:00.000   13.021175723   77.570394777   840.3188   5   9   1.9195   1.8471   5.9849   0.6354  -0.4780   1.5974   0.00    0.0
2024/02/01 00:35:30.000   13.021172715   77.570391468   840.0231   5   9   1.9206   1.8483   6.0110   0.6289  -0.4683   1.6043   0.00    0.0
2024/02/01 00:36:00.000   13.021171592   77.570390654   840.2570   5   9   1.9218   1.8496   6.0367   0.6223  -0.4588   1.6110   0.00    0.0
2024/02/01 00:36:30.000   13.021175566   77.570390531   838.9213   5   9   1.9229   1.8510   6.0618   0.6156  -0.4496   1.6173   0.00    0.0
2024/02/01 00:37:00.000   13.021174871   77.570390527   839.3004   5   9   1.9241   1.8524   6.0866   0.6087  -0.4406   1.6234   0.00    0.0
2024/02/01 00:37:30.000   13.021175403   77.570392456   839.1263   5   9   1.9252   1.8538   6.1108   0.6017  -0.4319   1.6293   0.00    0.0
2024/02/01 00:38:00.000   13.021176507   77.570390716   839.0705   5   9   1.9264   1.8553   6.1345   0.5945  -0.4235   1.6349   0.00    0.0
2024/02/01 00:38:30.000   13.021176967   77.570390244   839.3919   5   9   1.9276   1.8568   6.1576   0.5871  -0.4154   1.6402   0.00    0.0
2024/02/01 00:39:00.000   13.021176243   77.570392310   839.2880   5   9   1.9287   1.8584   6.1802   0.5796  -0.4078   1.6452   0.00    0.0
2024/02/01 00:39:30.000   13.021174422   77.570393319   839.7337   5   9   1.9299   1.8600   6.2022   0.5718  -0.4005   1.6499   0.00    0.0
2024/02/01 00:40:00.000   13.021176503   77.570390913   839.5165   5   9   1.9310   1.8616   6.2236   0.5639  -0.3936   1.6543   0.00    0.0
2024/02/01 00:40:30.000   13.021177281   77.570390950   839.2137   5   9   1.9322   1.8633   6.2443   0.5557  -0.3872   1.6584   0.00    0.0
2024/02/01 00:41:00.000   13.021178712   77.570392934   839.3538   5   9   1.9334   1.8651   6.2645   0.5474  -0.3813   1.6622   0.00    0.0
2024/02/01 00:41:30.000   13.021175762   77.570390613   838.4603   5   9   1.9345   1.8669   6.2839   0.5388  -0.3759   1.6656   0.00    0.0
2024/02/01 00:42:00.000   13.021175250   77.570389733   839.0137   5   9   1.9357   1.8687   6.3027   0.5300  -0.3710   1.6688   0.00    0.0
2024/02/01 00:42:30.000   13.021178068   77.570390148   839.3902   5   9   1.9369   1.8706   6.3208   0.5209  -0.3667   1.6716   0.00    0.0
2024/02/01 00:43:00.000   13.021175167   77.570388241   838.7995   5   9   1.9380   1.8725   6.3382   0.5116  -0.3630   1.6740   0.00    0.0
2024/02/01 00:43:30.000   13.021176528   77.570393212   838.7119   5   9   1.9392   1.8745   6.3548   0.5019  -0.3599   1.6762   0.00    0.0
2024/02/01 00:44:00.000   13.021179644   77.570391589   839.2231   5   9   1.9404   1.8766   6.3707   0.4920  -0.3574   1.6780   0.00    0.0
2024/02/01 00:44:30.000   13.021178153   77.570389018   838.6020   5   9   1.9416   1.8786   6.3859   0.4818  -0.3555   1.6794   0.00    0.0
2024/02/01 00:45:00.000   13.021177411   77.570391221   838.9481   5   9   1.9428   1.8808   6.4003   0.4713  -0.3543   1.6805   0.00    0.0
2024/02/01 00:45:30.000   13.021175548   77.570390256   839.1729   5   9   1.9440   1.8829   6.4139   0.4603  -0.3537   1.6812   0.00    0.0
2024/02/01 00:46:00.000   13.021176134   77.570389760   838.6096   5   9   1.9452   1.8852   6.4267   0.4490  -0.3538   1.6815   0.00    0.0
2024/02/01 00:46:30.000   13.021174041   77.570391792   839.1807   5   9   1.9464   1.8874   6.4387   0.4373  -0.3544   1.6815   0.00    0.0
2024/02/01 00:47:00.000   13.021177389   77.570390071   839.1053   5   9   1.9476   1.8898   6.4500   0.4252  -0.3557   1.6812   0.00    0.0
2024/02/01 00:47:30.000   13.021174733   77.570391741   839.7698   5   9   1.9489   1.8921   6.4604   0.4125  -0.3576   1.6804   0.00    0.0
2024/02/01 00:48:00.000   13.021172875   77.570391509   838.8303   5   9   1.9501   1.8946   6.4700   0.3994  -0.3601   1.6793   0.00    0.0
2024/02/01 00:48:30.000   13.021173059   77.570390828   839.4239   5   9   1.9514   1.8970   6.4787   0.3856  -0.3631   1.6778   0.00    0.0
2024/02/01 00:49:00.000   13.021172507   77.570389009   839.5833   5   9   1.9526   1.8996   6.4867   0.3712  -0.3666   1.6760   0.00    0.0
2024/02/01 00:49:30.000   13.021176433   77.570391835   838.5921   5   9   1.9539   1.9022   6.4938   0.3560  -0.3707   1.6737   0.00    0.0
2024/02/01 00:50:00.000   13.021176834   77.570391032   838.4829   5   9   1.9552   1.9048   6.5001   0.3401  -0.3752   1.6711   0.00    0.0
2024/02/01 00:50:30.000   13.021176244   77.570389070   838.9537   5   9   1.9565   1.9075   6.5056   0.3231  -0.3801   1.6682   0.00    0.0
2024/02/01 00:51:00.000   13.021178437   77.570387703   839.6881   5   9   1.9578   1.9102   6.5102   0.3051  -0.3855   1.6648   0.00    0.0
2024/02/01 00:51:30.000   13.021173927   77.570391106   838.8962   5   9   1.9592   1.9130   6.5140   0.2857  -0.3912   1.6611   0.00    0.0
2024/02/01 00:52:00.000   13.021177573   77.570391232   839.1163   5   9   1.9605   1.9158   6.5170   0.2648  -0.3972   1.6570   0.00    0.0
2024/02/01 00:52:30.000   13.021176638   77.570391638   838.1176   5   9   1.9619   1.9187   6.5192   0.2418  -0.4036   1.6525   0.00    0.0
2024/02/01 00:53:00.000   13.021175464   77.570392479   839.0393   5   9   1.9633   1.9217   6.5206   0.2161  -0.4102   1.6476   0.00    0.0
2024/02/01 00:53:30.000   13.021176590   77.570390382   838.7408   5   9   1.9648   1.9247   6.5212   0.1867  -0.4170   1.6424   0.00    0.0
2024/02/01 00:54:00.000   13.021175349   77.570391239   838.9529   5   9   1.9662   1.9278   6.5210   0.1513  -0.4241   1.6368   0.00    0.0
2024/02/01 00:54:30.000   13.021175257   77.570389249   838.6585   5   9   1.9677   1.9309   6.5200   0.1040  -0.4313   1.6308   0.00    0.0
2024/02/01 00:55:00.000   13.021174805   77.570387412   838.5589   5   9   1.9692   1.9341   6.5182  -0.0366  -0.4387   1.6245   0.00    0.0
2024/02/01 00:55:30.000   13.021176293   77.570390745   839.1648   5   9   1.9707   1.9373   6.5157  -0.1167  -0.4462   1.6178   0.00    0.0
2024/02/01 00:56:00.000   13.021175361   77.570390224   838.8804   5   9   1.9723   1.9406   6.5124  -0.1612  -0.4537   1.6108   0.00    0.0
2024/02/01 00:56:30.000   13.021173948   77.570389213   838.2561   5   9   1.9739   1.9439   6.5084  -0.1961  -0.4614   1.6034   0.00    0.0
2024/02/01 00:57:00.000   13.021176750   77.570388154   839.0886   5   9   1.9755   1.9473   6.5036  -0.2259  -0.4691   1.5956   0.00    0.0
2024/02/01 00:57:30.000   13.021179071   77.570389929   838.3463   5   9   1.9772   1.9508   6.4982  -0.2524  -0.4768   1.5875   0.00    0.0
2024/02/01 00:58:00.000   13.021177404   77.570387493   838.6598   5   9   1.9789   1.9543   6.4920  -0.2766  -0.4845   1.5790   0.00    0.0
2024/02/01 00:58:30.000   13.021175077   77.570388118   838.9994   5   9   1.9807   1.9579   6.4852  -0.2990  -0.4921   1.5702   0.00    0.0
2024/02/01 00:59:00.000   13.021175910   77.570389111   838.4358   5   9   1.9825   1.9616   6.4777  -0.3199  -0.4998   1.5611   0.00    0.0
2024/02/01 00:59:30.000   13.021174384   77.570389449   838.5868   5   9   1.9843   1.9653   6.4696  -0.3398  -0.5074   1.5516   0.00    0.0
2024/02/01 01:00:00.000   13.021175079   77.570389286   838.8875   5   9   1.9862   1.9690   6.4608  -0.3587  -0.5149   1.5418   0.00    0.0
2024/02/01 01:00:30.000   13.021176602   77.570391909   837.6322   5   9   1.9881   1.9728   6.4515  -0.3768  -0.5223   1.5316   0.00    0.0
2024/02/01 01:01:00.000   13.021175158   77.570386024   839.0456   5   9   1.9901   1.9767   6.4415  -0.3941  -0.5296   1.5212   0.00    0.0
2024/02/01 01:01:30.000   13.021175406   77.570388246   839.7494   5   9   1.9921   1.9807   6.4310  -0.4109  -0.5369   1.5104   0.00    0.0
2024/02/01 01:02:00.000   13.021171983   77.570386068   839.6987   5   9   1.9942   1.9847   6.4199  -0.4272  -0.5439   1.4992   0.00    0.0
2024/02/01 01:02:30.000   13.021172243   77.570389068   837.9933   5   9   1.9963   1.9887   6.4083  -0.4429  -0.5509   1.4878   0.00    0.0
2024/02/01 01:03:00.000   13.021177460   77.570385707   839.9267   5   9   1.9985   1.9929   6.3962  -0.4583  -0.5577   1.4760   0.00    0.0
2024/02/01 01:03:30.000   13.021174876   77.570389274   839.2675   5   9   2.0007   1.9970   6.3836  -0.4732  -0.5643   1.4639   0.00    0.0
2024/02/01 01:04:00.000   13.021174637   77.570386126   839.6767   5   9   2.0030   2.0013   6.3705  -0.4878  -0.5708   1.4515   0.00    0.0
2024/02/01 01:04:30.000   13.021175338   77.570386920   840.1318   5   9   2.0053   2.0056   6.3569  -0.5021  -0.5771   1.4388   0.00    0.0
2024/02/01 01:05:00.000   13.021172644   77.570385970   839.7381   5   9   2.0077   2.0100   6.3430  -0.5161  -0.5832   1.4258   0.00    0.0
2024/02/01 01:05:30.000   13.021173997   77.570388602   839.5713   5   9   2.0102   2.0144   6.3286  -0.5299  -0.5891   1.4125   0.00    0.0
2024/02/01 01:06:00.000   13.021174204   77.570387208   838.4336   5   9   2.0128   2.0189   6.3138  -0.5434  -0.5948   1.3988   0.00    0.0
2024/02/01 01:06:30.000   13.021175831   77.570384490   839.4448   5   9   2.0154   2.0235   6.2986  -0.5567  -0.6002   1.3849   0.00    0.0
2024/02/01 01:07:00.000   13.021176610   77.570386811   839.6754   5   9   2.0180   2.0281   6.2831  -0.5698  -0.6055   1.3706   0.00    0.0
2024/02/01 01:07:30.000   13.021175963   77.570386285   838.6456   5   9   2.0207   2.0328   6.2673  -0.5826  -0.6105   1.3560   0.00    0.0
2024/02/01 01:08:00.000   13.021176009   77.570387958   839.6040   5   9   2.0236   2.0376   6.2511  -0.5954  -0.6153   1.3412   0.00    0.0
2024/02/01 01:08:30.000   13.021175614   77.570385676   839.6367   5   9   2.0264   2.0424   6.2347  -0.6079  -0.6199   1.3260   0.00    0.0
2024/02/01 01:09:00.000   13.021177229   77.570384295   839.6893   5   9   2.0294   2.0473   6.2179  -0.6203  -0.6242   1.3105   0.00    0.0
2024/02/01 01:09:30.000   13.021179227   77.570383538   840.7612   5   9   2.0324   2.0523   6.2009  -0.6326  -0.6283   1.2946   0.00    0.0
2024/02/01 01:10:00.000   13.021176073   77.570383896   840.0219   5   9   2.0355   2.0573   6.1837  -0.6447  -0.6321   1.2785   0.00    0.0
2024/02/01 01:10:30.000   13.021175960   77.570385723   840.0144   5   9   2.0386   2.0624   6.1662  -0.6567  -0.6356   1.2620   0.00    0.0
2024/02/01 01:11:00.000   13.021174590   77.570382647   840.5705   5   9   2.0419   2.0676   6.1485  -0.6686  -0.6389   1.2452   0.00    0.0
2024/02/01 01:11:30.000   13.021178408   77.570382491   840.5180   5   9   2.0452   2.0728   6.1307  -0.6804  -0.6419   1.2281   0.00    0.0
2024/02/01 01:12:00.000   13.021175776   77.570385513   839.3807   5   9   2.0486   2.0781   6.1126  -0.6921  -0.6446   1.2106   0.00    0.0
2024/02/01 01:12:30.000   13.021179140   77.570379398   841.3126   5   9   2.0521   2.0834   6.0945  -0.7037  -0.6471   1.1928   0.00    0.0
2024/02/01 01:13:00.000   13.021179089   77.570384260   840.1968   5   9   2.0557   2.0889   6.0761  -0.7152  -0.6493   1.1746   0.00    0.0
2024/02/01 01:13:30.000   13.021178193   77.570380150   840.1761   5   9   2.0593   2.0944   6.0577  -0.7266  -0.6511   1.1560   0.00    0.0
2024/02/01 01:14:00.000   13.021179392   77.570381893   840.1211   5   9   2.0631   2.0999   6.0391  -0.7380  -0.6527   1.1371   0.00    0.0
2024/02/01 01:14:30.000   13.021177722   77.570382400   839.6072   5   9   2.0669   2.1056   6.0205  -0.7493  -0.6540   1.1177   0.00    0.0
2024/02/01 01:15:00.000   13.021174035   77.570379366   841.1014   5   9   2.0708   2.1113   6.0017  -0.7605  -0.6549   1.0979   0.00    0.0
2024/02/01 01:15:30.000   13.021174406   77.570384250   839.1775   5   9   2.0748   2.1171   5.9830  -0.7717  -0.6555   1.0777   0.00    0.0
2024/02/01 01:16:00.000   13.021176266   77.570386206   838.6174   5   9   2.0789   2.1229   5.9641  -0.7829  -0.6559   1.0571   0.00    0.0
2024/02/01 01:16:30.000   13.021176161   77.570382247   841.0503   5   9   2.0830   2.1288   5.9452  -0.7940  -0.6559   1.0360   0.00    0.0
2024/02/01 01:17:00.000   13.021173677   77.570399948   834.9565   5  10   2.0117   1.9842   5.4462  -0.4578  -1.5067   1.5264   0.00    0.0
2024/02/01 01:17:30.000   13.021174031   77.570386815   838.1406   5   9   2.0163   2.3545   6.2199  -0.5945  -2.4644   1.6198   0.00    0.0
2024/02/01 01:18:00.000   13.021176863   77.570381345   839.2735   5  10   2.0152   1.9937   5.4238  -0.4738  -1.5014   1.5041   0.00    0.0
2024/02/01 01:18:30.000   13.021176343   77.570383553   839.5231   5  10   2.0170   1.9985   5.4123  -0.4816  -1.4987   1.4927   0.00    0.0
2024/02/01 01:19:00.000   13.021177643   77.570376342   841.8177   5  10   2.0189   2.0033   5.4007  -0.4894  -1.4958   1.4811   0.00    0.0
2024/02/01 01:19:30.000   13.021176774   77.570381878   840.2233   5  10   2.0208   2.0082   5.3890  -0.4971  -1.4929   1.4693   0.00    0.0
2024/02/01 01:20:00.000   13.021181620   77.570354322   847.3850   5  10   2.0228   2.0132   5.3771  -0.5048  -1.4898   1.4572   0.00    0.0
2024/02/01 01:20:30.000   13.021176141   77.570382292   839.4239   5  10   2.0248   2.0182   5.3652  -0.5123  -1.4867   1.4451   0.00    0.0
2024/02/01 01:21:00.000   13.021178150   77.570375540   841.5657   5  10   2.0269   2.0232   5.3531  -0.5199  -1.4835   1.4327   0.00    0.0
2024/02/01 01:21:30.000   13.021176080   77.570378822   840.8048   5  10   2.0291   2.0282   5.3410  -0.5273  -1.4801   1.4201   0.00    0.0
2024/02/01 01:22:00.000   13.021179795   77.570378972   841.7763   5  10   2.0313   2.0334   5.3288  -0.5347  -1.4767   1.4073   0.00    0.0
2024/02/01 01:22:30.000   13.021177821   77.570382606   841.0552   5  10   2.0336   2.0385   5.3165  -0.5421  -1.4732   1.3944   0.00    0.0
2024/02/01 01:23:00.000   13.021177074   77.570381410   840.1509   5  10   2.0359   2.0437   5.3041  -0.5494  -1.4696   1.3813   0.00    0.0
2024/02/01 01:23:30.000   13.021175948   77.570379246   840.4398   5  10   2.0383   2.0490   5.2917  -0.5567  -1.4659   1.3679   0.00    0.0
2024/02/01 01:24:00.000   13.021183500   77.570376760   841.4680   5   9   2.3674   2.2834   6.2001  -1.2306  -2.3193   2.3949   0.00    0.0
2024/02/01 01:24:30.000   13.021186347   77.570366537   844.3816   5   9   2.3674   2.2872   6.1791  -1.2311  -2.3109   2.3793   0.00    0.0
2024/02/01 01:25:00.000   13.021182346   77.570373564   842.7149   5   9   2.3675   2.2910   6.1578  -1.2316  -2.3024   2.3635   0.00    0.0
2024/02/01 01:25:30.000   13.021183027   77.570374249   843.3055   5   8   2.6012   3.2599   8.4872  -2.0032  -4.3400   3.4392   0.00    0.0
2024/02/01 01:26:00.000   13.021183703   77.570371438   842.9934   5   8   2.5990   3.2560   8.4323  -1.9976  -4.3138   3.4143   0.00    0.0
2024/02/01 01:26:30.000   13.021182836   77.570371464   842.5826   5   8   2.5967   3.2521   8.3771  -1.9920  -4.2872   3.3891   0.00    0.0
2024/02/01 01:27:00.000   13.021185200   77.570372677   841.8645   5   8   2.5945   3.2481   8.3218  -1.9863  -4.2605   3.3636   0.00    0.0
2024/02/01 01:27:30.000   13.021183440   77.570373518   841.7410   5   8   2.5923   3.2441   8.2664  -1.9805  -4.2335   3.3379   0.00    0.0
2024/02/01 01:28:00.000   13.021182952   77.570371928   843.5171   5   8   2.5901   3.2401   8.2109  -1.9747  -4.2063   3.3120   0.00    0.0
2024/02/01 01:28:30.000   13.021182900   77.570372177   843.2956   5   8   2.5879   3.2361   8.1554  -1.9689  -4.1789   3.2858   0.00    0.0
2024/02/01 01:29:00.000   13.021179824   77.570381238   840.6707   5   8   2.5858   3.2322   8.0999  -1.9630  -4.1515   3.2595   0.00    0.0
2024/02/01 01:29:30.000   13.021183711   77.570374059   843.0254   5   8   2.5837   3.2282   8.0446  -1.9572  -4.1239   3.2331   0.00    0.0
2024/02/01 01:30:00.000   13.021183805   77.570369953   843.3790   5   8   2.5817   3.2244   7.9894  -1.9513  -4.0962   3.2065   0.00    0.0
2024/02/01 01:30:30.000   13.021184079   77.570373235   842.3181   5   8   2.5797   3.2205   7.9344  -1.9455  -4.0684   3.1798   0.00    0.0
2024/02/01 01:31:00.000   13.021182466   77.570369488   842.6492   5   8   2.5779   3.2168   7.8797  -1.9397  -4.0407   3.1530   0.00    0.0
2024/02/01 01:31:30.000   13.021183633   77.570373842   841.8481   5   8   2.5761   3.2131   7.8252  -1.9339  -4.0128   3.1262   0.00    0.0
2024/02/01 01:32:00.000   13.021184278   77.570379449   840.4622   5   8   2.5743   3.2095   7.7711  -1.9282  -3.9850   3.0993   0.00    0.0
2024/02/01 01:32:30.000   13.021182677   77.570378146   842.6907   5   8   2.5727   3.2059   7.7173  -1.9226  -3.9572   3.0724   0.00    0.0
2024/02/01 01:33:00.000   13.021181243   77.570379719   841.0257   5   8   2.5712   3.2025   7.6639  -1.9170  -3.9294   3.0455   0.00    0.0
2024/02/01 01:33:30.000   13.021182647   77.570375963   841.5675   5   8   2.5698   3.1992   7.6109  -1.9116  -3.9017   3.0186   0.00    0.0
2024/02/01 01:34:00.000   13.021183463   77.570370897   841.9072   5   8   2.5684   3.1959   7.5584  -1.9062  -3.8740   2.9917   0.00    0.0
2024/02/01 01:34:30.000   13.021182950   77.570376538   841.1442   5   8   2.5672   3.1928   7.5063  -1.9009  -3.8464   2.9648   0.00    0.0
2024/02/01 01:35:00.000   13.021184945   77.570374469   841.4277   5   8   2.5661   3.1898   7.4546  -1.8958  -3.8188   2.9379   0.00    0.0
2024/02/01 01:35:30.000   13.021184143   77.570376079   840.7610   5   8   2.5652   3.1869   7.4035  -1.8907  -3.7913   2.9111   0.00    0.0
2024/02/01 01:36:00.000   13.021183636   77.570377226   841.8288   5   8   2.5643   3.1841   7.3530  -1.8858  -3.7640   2.8844   0.00    0.0
2024/02/01 01:36:30.000   13.021183022   77.570372621   842.6390   5   8   2.5636   3.1815   7.3029  -1.8810  -3.7367   2.8577   0.00    0.0
2024/02/01 01:37:00.000   13.021183584   77.570367269   843.3868   5   7   2.5977   4.9344  11.7952  -2.2624  -6.9901   3.4573   0.00    0.0
2024/02/01 01:37:30.000   13.021184845   77.570367240   843.2950   5   7   2.5944   4.8906  11.6342  -2.2389  -6.8941   3.4017   0.00    0.0
2024/02/01 01:38:00.000   13.021185687   77.570366256   843.8402   5   7   2.5914   4.8480  11.4768  -2.2160  -6.8000   3.3469   0.00    0.0
2024/02/01 01:38:30.000   13.021183901   77.570370147   842.7809   5   7   2.5887   4.8066  11.3230  -2.1938  -6.7078   3.2931   0.00    0.0
2024/02/01 01:39:00.000   13.021184828   77.570367375   843.5965   5   7   2.5863   4.7663  11.1728  -2.1724  -6.6174   3.2402   0.00    0.0
2024/02/01 01:39:30.000   13.021180944   77.570366684   844.0132   5   7   2.5842   4.7271  11.0261  -2.1517  -6.5288   3.1883   0.00    0.0
2024/02/01 01:40:00.000   13.021183113   77.570369210   843.2645   5   7   2.5823   4.6890  10.8828  -2.1317  -6.4421   3.1372   0.00    0.0
2024/02/01 01:40:30.000   13.021185668   77.570367861   843.4202   5   7   2.5808   4.6521  10.7429  -2.1124  -6.3571   3.0870   0.00    0.0
2024/02/01 01:41:00.000   13.021182834   77.570369804   842.3702   5   7   2.5795   4.6162  10.6064  -2.0938  -6.2739   3.0376   0.00    0.0
2024/02/01 01:41:30.000   13.021182072   77.570370656   842.5067   5   7   2.5785   4.5814  10.4731  -2.0760  -6.1925   2.9891   0.00    0.0
2024/02/01 01:42:00.000   13.021180549   77.570367680   843.2491   5   7   2.5777   4.5476  10.3432  -2.0588  -6.1127   2.9415   0.00    0.0
2024/02/01 01:42:30.000   13.021181610   77.570364913   843.5454   5   7   2.5772   4.5149  10.2163  -2.0423  -6.0346   2.8946   0.00    0.0
2024/02/01 01:43:00.000   13.021187933   77.570368256   843.8225   5   7   2.5770   4.4832  10.0926  -2.0265  -5.9581   2.8486   0.00    0.0
2024/02/01 01:43:30.000   13.021182402   77.570371488   842.9407   5   7   2.5770   4.4525   9.9719  -2.0113  -5.8832   2.8033   0.00    0.0
2024/02/01 01:44:00.000   13.021182575   77.570369328   842.2035   5   7   2.5772   4.4228   9.8542  -1.9968  -5.8099   2.7587   0.00    0.0
2024/02/01 01:44:30.000   13.021180465   77.570365030   843.1936   5   7   2.5777   4.3940   9.7395  -1.9830  -5.7381   2.7149   0.00    0.0
2024/02/01 01:45:00.000   13.021184700   77.570370933   842.8838   5   7   2.5784   4.3662   9.6275  -1.9698  -5.6677   2.6718   0.00    0.0
2024/02/01 01:45:30.000   13.021181868   77.570369969   842.8600   5   7   2.5793   4.3393   9.5183  -1.9572  -5.5988   2.6294   0.00    0.0
2024/02/01 01:46:00.000   13.021185787   77.570367207   842.8537   5   7   2.5804   4.3133   9.4119  -1.9453  -5.5313   2.5876   0.00    0.0
2024/02/01 01:46:30.000   13.021181133   77.570365683   843.4990   5   7   2.5818   4.2881   9.3080  -1.9339  -5.4652   2.5465   0.00    0.0
2024/02/01 01:47:00.000   13.021178941   77.570371217   842.1781   5   7   2.5834   4.2638   9.2068  -1.9232  -5.4004   2.5060   0.00    0.0
2024/02/01 01:47:30.000   13.021185871   77.570367450   843.6788   5   7   2.5852   4.2404   9.1080  -1.9130  -5.3368   2.4661   0.00    0.0
2024/02/01 01:48:00.000   13.021182783   77.570365660   844.9831   5   7   2.5871   4.2178   9.0117  -1.9035  -5.2746   2.4267   0.00    0.0
2024/02/01 01:48:30.000   13.021182185   77.570368042   843.5941   5   7   2.5893   4.1959   8.9178  -1.8945  -5.2135   2.3879   0.00    0.0
2024/02/01 01:49:00.000   13.021184192   77.570364353   843.3877   5   7   2.5917   4.1749   8.8263  -1.8860  -5.1536   2.3497   0.00    0.0
2024/02/01 01:49:30.000   13.021181862   77.570368249   843.2428   5   7   2.5942   4.1546   8.7369  -1.8781  -5.0949   2.3119   0.00    0.0
2024/02/01 01:50:00.000   13.021183478   77.570366492   843.1872   5   7   2.5970   4.1351   8.6498  -1.8708  -5.0373   2.2746   0.00    0.0
2024/02/01 01:50:30.000   13.021182363   77.570371152   841.9786   5   7   2.5999   4.1162   8.5649  -1.8640  -4.9807   2.2378   0.00    0.0
2024/02/01 01:51:00.000   13.021182464   77.570368630   842.9061   5   7   2.6030   4.0981   8.4820  -1.8577  -4.9252   2.2014   0.00    0.0
2024/02/01 01:51:30.000   13.021185045   77.570366499   842.7466   5   7   2.6062   4.0807   8.4012  -1.8519  -4.8707   2.1654   0.00    0.0
2024/02/01 01:52:00.000   13.021183460   77.570367756   843.3020   5   7   2.6097   4.0640   8.3224  -1.8466  -4.8172   2.1299   0.00    0.0
2024/02/01 01:52:30.000   13.021183477   77.570367492   842.6137   5   7   2.6133   4.0480   8.2455  -1.8418  -4.7646   2.0947   0.00    0.0
2024/02/01 01:53:00.000   13.021181701   77.570371047   842.6948   5   7   2.6170   4.0326   8.1705  -1.8376  -4.7130   2.0598   0.00    0.0
2024/02/01 01:53:30.000   13.021180223   77.570370343   842.2190   5   7   2.6210   4.0178   8.0974  -1.8337  -4.6622   2.0253   0.00    0.0
2024/02/01 01:54:00.000   13.021183704   77.570366989   842.9621   5   7   2.6250   4.0037   8.0260  -1.8304  -4.6123   1.9911   0.00    0.0
2024/02/01 01:54:30.000   13.021183644   77.570369973   842.9866   5   7   2.6293   3.9902   7.9564  -1.8275  -4.5632   1.9571   0.00    0.0
2024/02/01 01:55:00.000   13.021185700   77.570367558   843.3527   5   7   2.6336   3.9772   7.8885  -1.8251  -4.5150   1.9235   0.00    0.0
2024/02/01 01:55:30.000   13.021184086   77.570366804   843.2880   5   7   2.6382   3.9649   7.8223  -1.8231  -4.4675   1.8900   0.00    0.0
2024/02/01 01:56:00.000   13.021185060   77.570370507   842.1643   5   7   2.6428   3.9531   7.7576  -1.8215  -4.4207   1.8568   0.00    0.0
2024/02/01 01:56:30.000   13.021183922   77.570369337   843.2090   5   7   2.6476   3.9419   7.6946  -1.8204  -4.3747   1.8238   0.00    0.0
2024/02/01 01:57:00.000   13.021185204   77.570366072   842.2439   5   7   2.6526   3.9313   7.6331  -1.8197  -4.3293   1.7910   0.00    0.0
2024/02/01 01:57:30.000   13.021184970   77.570370176   842.6872   5   7   2.6577   3.9212   7.5731  -1.8194  -4.2847   1.7583   0.00    0.0
2024/02/01 01:58:00.000   13.021182570   77.570369397   843.0012   5   7   2.6629   3.9116   7.5146  -1.8195  -4.2406   1.7257   0.00    0.0
2024/02/01 01:58:30.000   13.021183245   77.570368256   843.1643   5   7   2.6683   3.9025   7.4575  -1.8200  -4.1972   1.6932   0.00    0.0
2024/02/01 01:59:00.000   13.021184447   77.570366268   843.1638   5   7   2.6737   3.8940   7.4018  -1.8209  -4.1545   1.6609   0.00    0.0
2024/02/01 01:59:30.000   13.021179995   77.570367998   842.5322   5   7   2.6793   3.8859   7.3474  -1.8222  -4.1122   1.6285   0.00    0.0
2024/02/01 02:00:00.000   13.021182910   77.570368678   842.7987   5   7   2.6851   3.8784   7.2944  -1.8239  -4.0706   1.5962   0.00    0.0
2024/02/01 02:00:30.000   13.021185607   77.570369180   843.1542   5   7   2.6909   3.8713   7.2427  -1.8259  -4.0294   1.5639   0.00    0.0
2024/02/01 02:01:00.000   13.021182833   77.570369001   842.7126   5   7   2.6969   3.8647   7.1922  -1.8283  -3.9888   1.5315   0.00    0.0
2024/02/01 02:01:30.000   13.021187081   77.570369312   842.5863   5   7   2.7030   3.8586   7.1430  -1.8311  -3.9487   1.4991   0.00    0.0
2024/02/01 02:02:00.000   13.021182482   77.570367915   842.8607   5   7   2.7092   3.8529   7.0950  -1.8342  -3.9090   1.4666   0.00    0.0
2024/02/01 02:02:30.000   13.021184379   77.570366038   842.9428   5   7   2.7155   3.8477   7.0482  -1.8377  -3.8698   1.4339   0.00    0.0
2024/02/01 02:03:00.000   13.021186130   77.570368893   842.5192   5   7   2.7220   3.8429   7.0026  -1.8415  -3.8310   1.4011   0.00    0.0
2024/02/01 02:03:30.000   13.021185341   77.570366951   843.4227   5   7   2.7285   3.8386   6.9581  -1.8457  -3.7926   1.3681   0.00    0.0
2024/02/01 02:04:00.000   13.021184098   77.570367384   843.0478   5   7   2.7352   3.8347   6.9146  -1.8502  -3.7546   1.3348   0.00    0.0
2024/02/01 02:04:30.000   13.021182637   77.570366756   844.0623   5   7   2.7419   3.8313   6.8723  -1.8550  -3.7169   1.3013   0.00    0.0
2024/02/01 02:05:00.000   13.021184230   77.570366368   843.2378   5   7   2.7488   3.8282   6.8310  -1.8601  -3.6796   1.2673   0.00    0.0
2024/02/01 02:05:30.000   13.021184615   77.570367747   843.1373   5   7   2.7558   3.8256   6.7908  -1.8656  -3.6427   1.2330   0.00    0.0
2024/02/01 02:06:00.000   13.021182984   77.570367543   842.5674   5   7   2.7629   3.8234   6.7516  -1.8713  -3.6060   1.1983   0.00    0.0
2024/02/01 02:06:30.000   13.021182482   77.570367313   843.1186   5   7   2.7701   3.8216   6.7134  -1.8774  -3.5697   1.1630   0.00    0.0
2024/02/01 02:07:00.000   13.021181927   77.570369327   842.9248   5   7   2.7773   3.8203   6.6761  -1.8838  -3.5336   1.1271   0.00    0.0
2024/02/01 02:07:30.000   13.021181258   77.570368446   842.9820   5   7   2.7847   3.8193   6.6398  -1.8905  -3.4977   1.0905   0.00    0.0
2024/02/01 02:08:00.000   13.021188100   77.570367064   842.6214   5   7   2.7922   3.8187   6.6044  -1.8974  -3.4621   1.0531   0.00    0.0
2024/02/01 02:08:30.000   13.021183222   77.570367823   843.0803   5   7   2.7998   3.8185   6.5700  -1.9047  -3.4267   1.0148   0.00    0.0
2024/02/01 02:09:00.000   13.021183188   77.570368739   842.7658   5   7   2.8074   3.8187   6.5364  -1.9122  -3.3916   0.9755   0.00    0.0
2024/02/01 02:09:30.000   13.021183047   77.570368691   842.9569   5   7   2.8152   3.8193   6.5038  -1.9201  -3.3566   0.9350   0.00    0.0
2024/02/01 02:10:00.000   13.021187162   77.570369009   842.4134   5   7   2.8231   3.8202   6.4720  -1.9282  -3.3217   0.8932   0.00    0.0
2024/02/01 02:10:30.000   13.021182319   77.570370199   842.6694   5   7   2.8310   3.8215   6.4410  -1.9366  -3.2870   0.8497   0.00    0.0
2024/02/01 02:11:00.000   13.021185287   77.570368956   842.2810   5   7   2.8390   3.8232   6.4109  -1.9452  -3.2524   0.8043   0.00    0.0
2024/02/01 02:11:30.000   13.021186499   77.570368300   842.1539   5   7   2.8471   3.8253   6.3816  -1.9541  -3.2180   0.7567   0.00    0.0
2024/02/01 02:12:00.000   13.021184192   77.570369558   842.7342   5   7   2.8553   3.8278   6.3531  -1.9633  -3.1836   0.7063   0.00    0.0
2024/02/01 02:12:30.000   13.021184859   77.570371209   842.7169   5   7   2.8636   3.8306   6.3254  -1.9728  -3.1493   0.6525   0.00    0.0
2024/02/01 02:13:00.000   13.021184161   77.570369495   842.2720   5   7   2.8720   3.8338   6.2985  -1.9825  -3.1150   0.5943   0.00    0.0
2024/02/01 02:13:30.000   13.021186274   77.570367314   842.8950   5   7   2.8805   3.8373   6.2723  -1.9924  -3.0808   0.5302   0.00    0.0
2024/02/01 02:14:00.000   13.021181814   77.570371367   842.5026   5   7   2.8890   3.8413   6.2469  -2.0026  -3.0465   0.4577   0.00    0.0
2024/02/01 02:14:30.000   13.021183656   77.570367320   843.3062   5   7   2.8976   3.8455   6.2223  -2.0131  -3.0123   0.3719   0.00    0.0
2024/02/01 02:15:00.000   13.021180929   77.570369924   842.9380   5   7   2.9063   3.8502   6.1983  -2.0238  -2.9780   0.2599   0.00    0.0
2024/02/01 02:15:30.000   13.021184995   77.570366672   842.3207   5   7   2.9151   3.8551   6.1751  -2.0348  -2.9437  -0.0536   0.00    0.0
2024/02/01 02:16:00.000   13.021183225   77.570367938   843.0904   5   7   2.9240   3.8605   6.1526  -2.0460  -2.9093  -0.2702   0.00    0.0
2024/02/01 02:16:30.000   13.021187826   77.570366565   843.2321   5   7   2.9329   3.8662   6.1308  -2.0574  -2.8748  -0.3779   0.00    0.0
2024/02/01 02:17:00.000   13.021183372   77.570370136   842.8183   5   7   2.9419   3.8722   6.1096  -2.0691  -2.8402  -0.4609   0.00    0.0
2024/02/01 02:17:30.000   13.021182662   77.570368021   842.5488   5   7   2.9510   3.8787   6.0892  -2.0810  -2.8054  -0.5309   0.00    0.0
2024/02/01 02:18:00.000   13.021184139   77.570367079   842.8558   5   7   2.9601   3.8854   6.0694  -2.0931  -2.7705  -0.5925   0.00    0.0
2024/02/01 02:18:30.000   13.021184671   77.570367362   843.7058   5   7   2.9693   3.8925   6.0503  -2.1055  -2.7353  -0.6482   0.00    0.0
2024/02/01 02:19:00.000   13.021182879   77.570370370   843.1758   5   7   2.9786   3.9000   6.0318  -2.1181  -2.7000  -0.6994   0.00    0.0
2024/02/01 02:19:30.000   13.021181845   77.570370059   842.7403   5   7   2.9880   3.9078   6.0139  -2.1309  -2.6644  -0.7471   0.00    0.0
2024/02/01 02:20:00.000   13.021182419   77.570368975   843.2288   5   7   2.9975   3.9160   5.9967  -2.1440  -2.6285  -0.7918   0.00    0.0
2024/02/01 02:20:30.000   13.021187413   77.570367999   842.3281   5   7   3.0070   3.9245   5.9802  -2.1572  -2.5923  -0.8342   0.00    0.0
2024/02/01 02:21:00.000   13.021185477   77.570367830   843.2357   5   7   3.0165   3.9334   5.9642  -2.1707  -2.5558  -0.8746   0.00    0.0
2024/02/01 02:21:30.000   13.021178650   77.570368070   842.5966   5   7   3.0262   3.9426   5.9488  -2.1845  -2.5188  -0.9132   0.00    0.0
2024/02/01 02:22:00.000   13.021181690   77.570370303   842.5466   5   7   3.0359   3.9522   5.9341  -2.1984  -2.4815  -0.9503   0.00    0.0
2024/02/01 02:22:30.000   13.021185369   77.570367039   842.5971   5   7   3.0457   3.9622   5.9200  -2.2126  -2.4437  -0.9861   0.00    0.0
2024/02/01 02:23:00.000   13.021183535   77.570368819   842.8129   5   7   3.0555   3.9725   5.9064  -2.2269  -2.4055  -1.0207   0.00    0.0
2024/02/01 02:23:30.000   13.021185897   77.570367581   842.0745   5   7   3.0654   3.9831   5.8934  -2.2415  -2.3666  -1.0542   0.00    0.0
2024/02/01 02:24:00.000   13.021183861   77.570370382   842.6423   5   7   3.0754   3.9941   5.8811  -2.2563  -2.3272  -1.0869   0.00    0.0
2024/02/01 02:24:30.000   13.021183573   77.570367722   842.6082   5   7   3.0854   4.0055   5.8693  -2.2714  -2.2872  -1.1187   0.00    0.0
2024/02/01 02:25:00.000   13.021181246   77.570369036   842.3871   5   7   3.0955   4.0173   5.8580  -2.2866  -2.2465  -1.1497   0.00    0.0
2024/02/01 02:25:30.000   13.021180405   77.570368687   842.8929   5   7   3.1057   4.0293   5.8474  -2.3020  -2.2050  -1.1801   0.00    0.0
2024/02/01 02:26:00.000   13.021187427   77.570367574   842.4615   5   7   3.1159   4.0418   5.8373  -2.3177  -2.1628  -1.2099   0.00    0.0
2024/02/01 02:26:30.000   13.021182350   77.570369206   842.5304   5   7   3.1262   4.0546   5.8277  -2.3336  -2.1196  -1.2392   0.00    0.0
2024/02/01 02:27:00.000   13.021181115   77.570366578   842.2211   5   7   3.1366   4.0678   5.8188  -2.3497  -2.0755  -1.2679   0.00    0.0
2024/02/01 02:27:30.000   13.021185321   77.570367528   843.2409   5   7   3.1470   4.0814   5.8103  -2.3660  -2.0303  -1.2962   0.00    0.0
2024/02/01 02:28:00.000   13.021186084   77.570365887   843.0187   5   7   3.1574   4.0953   5.8025  -2.3825  -1.9841  -1.3240   0.00    0.0
2024/02/01 02:28:30.000   13.021188766   77.570365155   843.3103   5   7   3.1680   4.1096   5.7951  -2.3992  -1.9365  -1.3515   0.00    0.0
2024/02/01 02:29:00.000   13.021184158   77.570366579   843.4727   5   7   3.1786   4.1243   5.7883  -2.4162  -1.8876  -1.3787   0.00    0.0
2024/02/01 02:29:30.000   13.021182762   77.570368534   842.4928   5   7   3.1892   4.1393   5.7821  -2.4333  -1.8372  -1.4055   0.00    0.0
2024/02/01 02:30:00.000   13.021177198   77.570366309   843.5289   5   7   3.1999   4.1547   5.7764  -2.4507  -1.7852  -1.4321   0.00    0.0
2024/02/01 02:30:30.000   13.021181244   77.570368064   842.7465   5   7   3.2107   4.1705   5.7712  -2.4683  -1.7314  -1.4584   0.00    0.0
2024/02/01 02:31:00.000   13.021177164   77.570376752   841.7919   5   8   2.8051   3.9925   5.5552  -2.0454  -0.9258  -2.1575   0.00    0.0
2024/02/01 02:31:30.000   13.021176233   77.570375887   841.7733   5   8   2.8118   4.0071   5.5577  -2.0607  -0.8265  -2.1701   0.00    0.0
2024/02/01 02:32:00.000   13.021182939   77.570370537   842.1197   5   8   2.8185   4.0220   5.5606  -2.0761  -0.7125  -2.1828   0.00    0.0
2024/02/01 02:32:30.000   13.021181984   77.570374405   841.6573   5   8   2.8252   4.0373   5.5639  -2.0916  -0.5752  -2.1955   0.00    0.0
2024/02/01 02:33:00.000   13.021178659   77.570371572   842.1994   5   8   2.8318   4.0527   5.5677  -2.1072  -0.3905  -2.2083   0.00    0.0
2024/02/01 02:33:30.000   13.021181707   77.570369772   843.3676   5   8   2.8385   4.0685   5.5720  -2.1228   0.1658  -2.2211   0.00    0.0
2024/02/01 02:34:00.000   13.021177476   77.570372698   842.5863   5   8   2.8452   4.0846   5.5766  -2.1385   0.4573  -2.2341   0.00    0.0
2024/02/01 02:34:30.000   13.021182826   77.570365153   842.8846   5   8   2.8518   4.1010   5.5817  -2.1543   0.6264  -2.2470   0.00    0.0
2024/02/01 02:35:00.000   13.021178442   77.570372339   842.2656   5   8   2.8584   4.1176   5.5873  -2.1702   0.7599  -2.2600   0.00    0.0
2024/02/01 02:35:30.000   13.021175654   77.570377283   841.0995   5   7   3.0560   4.1498   5.8098  -2.0982   1.1493  -1.8699   0.00    0.0
2024/02/01 02:36:00.000   13.021173120   77.570363387   843.8196   5   7   3.0613   4.1671   5.8186  -2.1148   1.2311  -1.8842   0.00    0.0
2024/02/01 02:36:30.000   13.021164260   77.570374280   842.0212   5   7   3.0665   4.1847   5.8280  -2.1313   1.3087  -1.8986   0.00    0.0
2024/02/01 02:37:00.000   13.021179141   77.570373776   841.3059   5   7   3.0717   4.2027   5.8379  -2.1480   1.3828  -1.9131   0.00    0.0
2024/02/01 02:37:30.000   13.021170842   77.570361504   843.3538   5   7   3.0769   4.2209   5.8482  -2.1646   1.4540  -1.9276   0.00    0.0
2024/02/01 02:38:00.000   13.021175319   77.570369240   842.1922   5   7   3.0821   4.2395   5.8590  -2.1814   1.5226  -1.9422   0.00    0.0
2024/02/01 02:38:30.000   13.021182229   77.570378270   840.9601   5   7   3.0872   4.2584   5.8704  -2.1981   1.5891  -1.9569   0.00    0.0
2024/02/01 02:39:30.000   13.021174202   77.570359549   845.0701   5   7   3.0973   4.2972   5.8945  -2.2318   1.7168  -1.9866   0.00    0.0
2024/02/01 02:40:00.000   13.021179453   77.570367831   842.8536   5   7   3.1024   4.3171   5.9074  -2.2488   1.7784  -2.0015   0.00    0.0
2024/02/01 02:40:30.000   13.021171509   77.570353881   845.5670   5   7   3.1074   4.3373   5.9207  -2.2657   1.8388  -2.0166   0.00    0.0
2024/02/01 02:41:00.000   13.021173810   77.570366492   842.7527   5   7   3.1123   4.3578   5.9346  -2.2828   1.8980  -2.0317   0.00    0.0
2024/02/01 02:41:30.000   13.021175738   77.570366869   842.5052   5   7   3.1173   4.3787   5.9490  -2.2998   1.9563  -2.0470   0.00    0.0
2024/02/01 02:42:00.000   13.021173628   77.570358931   843.2534   5   6   3.4466   4.8127   6.9171  -1.5879   3.2998   0.9284   0.00    0.0
2024/02/01 02:42:30.000   13.021155512   77.570357822   839.9669   5   6   3.4472   4.8384   6.9487  -1.6117   3.3529   0.9046   0.00    0.0
2024/02/01 02:43:00.000   13.021170532   77.570363214   840.5360   5   6   3.4477   4.8647   6.9812  -1.6354   3.4064   0.8794   0.00    0.0
2024/02/01 02:43:30.000   13.021181574   77.570371723   840.6098   5   6   3.4481   4.8915   7.0145  -1.6590   3.4602   0.8528   0.00    0.0
2024/02/01 02:44:00.000   13.021169393   77.570361219   840.6599   5   6   3.4485   4.9188   7.0487  -1.6824   3.5144   0.8245   0.00    0.0
2024/02/01 02:44:30.000   13.021162558   77.570365242   838.8150   5   6   3.4488   4.9467   7.0838  -1.7057   3.5690   0.7943   0.00    0.0
2024/02/01 02:45:00.000   13.021164850   77.570363321   841.6881   5   6   3.4491   4.9752   7.1199  -1.7289   3.6239   0.7621   0.00    0.0
2024/02/01 02:45:30.000   13.021172705   77.570363310   843.0454   5   6   3.4493   5.0043   7.1568  -1.7520   3.6793   0.7276   0.00    0.0
2024/02/01 02:46:00.000   13.021175112   77.570361554   842.3931   5   6   3.4495   5.0340   7.1948  -1.7750   3.7351   0.6903   0.00    0.0
2024/02/01 02:46:30.000   13.021173684   77.570363853   842.0203   5   6   3.4496   5.0643   7.2337  -1.7979   3.7915   0.6498   0.00    0.0
2024/02/01 02:47:00.000   13.021164389   77.570366112   840.3587   5   6   3.4497   5.0952   7.2736  -1.8207   3.8483   0.6055   0.00    0.0
2024/02/01 02:47:30.000   13.021165312   77.570364135   839.9494   5   5   3.5421   5.2937   8.1709  -1.5292   3.2327  -1.6176   0.00    0.0
2024/02/01 02:48:00.000   13.021172476   77.570360373   840.3194   5   5   3.5393   5.3214   8.2122  -1.5654   3.3086  -1.6237   0.00    0.0
2024/02/01 02:48:30.000   13.021174614   77.570362488   841.5960   5   5   3.5365   5.3498   8.2548  -1.6009   3.3844  -1.6305   0.00    0.0
2024/02/01 02:49:00.000   13.021170842   77.570365143   842.9949   5   5   3.5337   5.3790   8.2985  -1.6357   3.4602  -1.6379   0.00    0.0
2024/02/01 02:49:30.000   13.021171137   77.570366640   841.2013   5   5   3.5310   5.4089   8.3436  -1.6699   3.5361  -1.6460   0.00    0.0
2024/02/01 02:50:00.000   13.021171386   77.570363062   841.2792   5   5   3.5283   5.4395   8.3899  -1.7035   3.6121  -1.6547   0.00    0.0
2024/02/01 02:50:30.000   13.021167886   77.570366430   840.8988   5   5   3.5257   5.4709   8.4376  -1.7366   3.6883  -1.6641   0.00    0.0
2024/02/01 02:51:00.000   13.021171575   77.570364316   841.3603   5   5   3.5231   5.5031   8.4866  -1.7693   3.7648  -1.6741   0.00    0.0
2024/02/01 02:51:30.000   13.021173689   77.570366634   842.2092   5   5   3.5205   5.5361   8.5370  -1.8015   3.8415  -1.6849   0.00    0.0
2024/02/01 02:52:00.000   13.021173971   77.570364615   842.1976   5   5   3.5179   5.5698   8.5889  -1.8334   3.9187  -1.6962   0.00    0.0
2024/02/01 02:52:30.000   13.021175773   77.570362902   841.9865   5   5   3.5155   5.6044   8.6422  -1.8648   3.9963  -1.7082   0.00    0.0
2024/02/01 02:53:00.000   13.021176006   77.570367846   841.8750   5   5   3.5130   5.6398   8.6969  -1.8959   4.0743  -1.7209   0.00    0.0
2024/02/01 02:53:30.000   13.021174932   77.570363404   841.8298   5   5   3.5106   5.6761   8.7532  -1.9267   4.1529  -1.7343   0.00    0.0
2024/02/01 02:54:00.000   13.021171558   77.570368683   841.3794   5   5   3.5083   5.7133   8.8111  -1.9572   4.2321  -1.7483   0.00    0.0
2024/02/01 02:54:30.000   13.021166714   77.570366914   841.1223   5   5   3.5059   5.7513   8.8706  -1.9875   4.3119  -1.7629   0.00    0.0
2024/02/01 02:55:00.000   13.021171390   77.570363749   840.9627   5   5   3.5037   5.7902   8.9316  -2.0175   4.3924  -1.7782   0.00    0.0
2024/02/01 02:55:30.000   13.021172507   77.570365957   841.6522   5   5   3.5015   5.8300   8.9944  -2.0473   4.4736  -1.7942   0.00    0.0
2024/02/01 02:56:00.000   13.021178518   77.570364740   843.2267   5   5   3.4993   5.8708   9.0589  -2.0769   4.5556  -1.8108   0.00    0.0
2024/02/01 02:56:30.000   13.021171643   77.570363894   841.6049   5   5   3.4972   5.9125   9.1251  -2.1064   4.6385  -1.8281   0.00    0.0
2024/02/01 02:57:00.000   13.021175167   77.570368527   843.1958   5   5   3.4952   5.9553   9.1931  -2.1357   4.7222  -1.8461   0.00    0.0
2024/02/01 02:57:30.000   13.021174862   77.570367804   842.3144   5   5   3.4932   5.9990   9.2630  -2.1648   4.8069  -1.8647   0.00    0.0
2024/02/01 02:58:00.000   13.021174136   77.570363953   841.7100   5   5   3.4913   6.0437   9.3348  -2.1939   4.8926  -1.8839   0.00    0.0
2024/02/01 02:58:30.000   13.021173947   77.570360923   840.9248   5   5   3.4894   6.0895   9.4085  -2.2228   4.9793  -1.9039   0.00    0.0
2024/02/01 02:59:00.000   13.021175591   77.570363780   843.0445   5   5   3.4876   6.1363   9.4842  -2.2517   5.0670  -1.9244   0.00    0.0
2024/02/01 02:59:30.000   13.021179084   77.570365821   842.3728   5   5   3.4859   6.1842   9.5619  -2.2805   5.1559  -1.9457   0.00    0.0
2024/02/01 03:00:00.000   13.021178006   77.570361277   841.9747   5   5   3.4842   6.2333   9.6417  -2.3093   5.2460  -1.9676   0.00    0.0
2024/02/01 03:00:30.000   13.021176704   77.570366820   841.5743   5   5   3.4826   6.2834   9.7237  -2.3380   5.3373  -1.9902   0.00    0.0
2024/02/01 03:01:00.000   13.021172237   77.570365507   840.5219   5   5   3.4811   6.3348   9.8078  -2.3668   5.4299  -2.0134   0.00    0.0
2024/02/01 03:01:30.000   13.021171639   77.570365700   841.6311   5   5   3.4797   6.3873   9.8943  -2.3955   5.5239  -2.0374   0.00    0.0
2024/02/01 03:02:00.000   13.021180123   77.570365345   841.5630   5   5   3.4783   6.4411   9.9830  -2.4243   5.6192  -2.0620   0.00    0.0
2024/02/01 03:02:30.000   13.021176412   77.570365091   840.8542   5   5   3.4770   6.4961  10.0741  -2.4531   5.7160  -2.0872   0.00    0.0
2024/02/01 03:03:00.000   13.021174622   77.570365977   840.5503   5   5   3.4758   6.5525  10.1676  -2.4819   5.8143  -2.1132   0.00    0.0
2024/02/01 03:03:30.000   13.021174325   77.570362239   840.3781   5   5   3.4746   6.6101  10.2637  -2.5108   5.9141  -2.1398   0.00    0.0
2024/02/01 03:04:00.000   13.021176749   77.570364963   840.8246   5   5   3.4736   6.6691  10.3623  -2.5398   6.0155  -2.1671   0.00    0.0
2024/02/01 03:04:30.000   13.021174479   77.570364806   841.1689   5   5   3.4726   6.7294  10.4635  -2.5689   6.1185  -2.1951   0.00    0.0
2024/02/01 03:05:00.000   13.021172335   77.570366178   841.6495   5   5   3.4717   6.7912  10.5674  -2.5981   6.2233  -2.2238   0.00    0.0
2024/02/01 03:05:30.000   13.021175411   77.570360405   840.1569   5   5   3.4709   6.8544  10.6740  -2.6274   6.3298  -2.2532   0.00    0.0
2024/02/01 03:06:00.000   13.021174939   77.570365818   840.5340   5   5   3.4702   6.9191  10.7835  -2.6568   6.4382  -2.2833   0.00    0.0
2024/02/01 03:06:30.000   13.021170631   77.570368772   840.9825   5   5   3.4696   6.9853  10.8959  -2.6864   6.5484  -2.3141   0.00    0.0
2024/02/01 03:07:00.000   13.021171862   77.570366286   840.8083   5   5   3.4691   7.0531  11.0112  -2.7162   6.6606  -2.3456   0.00    0.0
2024/02/01 03:07:30.000   13.021178273   77.570357118   841.3533   5   5   3.4686   7.1224  11.1296  -2.7461   6.7747  -2.3779   0.00    0.0
2024/02/01 03:08:00.000   13.021175125   77.570363828   840.6216   5   5   3.4683   7.1934  11.2511  -2.7762   6.8909  -2.4108   0.00    0.0
2024/02/01 03:08:30.000   13.021173452   77.570365034   840.9488   5   5   3.4681   7.2660  11.3758  -2.8065   7.0091  -2.4445   0.00    0.0
2024/02/01 03:09:00.000   13.021170933   77.570365800   840.5462   5   5   3.4680   7.3404  11.5037  -2.8370   7.1296  -2.4789   0.00    0.0
2024/02/01 03:09:30.000   13.021172128   77.570362982   840.6565   5   5   3.4680   7.4165  11.6349  -2.8678   7.2522  -2.5140   0.00    0.0
2024/02/01 03:10:00.000   13.021174287   77.570359424   840.4651   5   5   3.4680   7.4943  11.7696  -2.8988   7.3771  -2.5499   0.00    0.0
2024/02/01 03:10:30.000   13.021172517   77.570365589   840.9990   5   5   3.4682   7.5740  11.9077  -2.9300   7.5043  -2.5864   0.00    0.0
2024/02/01 03:11:00.000   13.021173270   77.570363574   840.4410   5   5   3.4685   7.6555  12.0493  -2.9615   7.6338  -2.6238   0.00    0.0
2024/02/01 03:11:30.000   13.021174477   77.570360777   840.4862   5   5   3.4690   7.7388  12.1945  -2.9933   7.7658  -2.6618   0.00    0.0
2024/02/01 03:12:00.000   13.021172657   77.570362807   840.4044   5   5   3.4695   7.8241  12.3434  -3.0253   7.9002  -2.7006   0.00    0.0
2024/02/01 03:12:30.000   13.021171338   77.570361075   840.2813   5   5   3.4701   7.9114  12.4960  -3.0577   8.0371  -2.7401   0.00    0.0
2024/02/01 03:13:00.000   13.021171876   77.570367328   841.0208   5   5   3.4709   8.0006  12.6524  -3.0903   8.1765  -2.7804   0.00    0.0
2024/02/01 03:13:30.000   13.021175894   77.570362077   840.5565   5   5   3.4718   8.0918  12.8127  -3.1232   8.3185  -2.8214   0.00    0.0
2024/02/01 03:14:00.000   13.021178653   77.570358852   840.1387   5   5   3.4728   8.1850  12.9768  -3.1564   8.4631  -2.8630   0.00    0.0
2024/02/01 03:14:30.000   13.021173897   77.570365226   841.5253   5   5   3.4739   8.2803  13.1448  -3.1899   8.6104  -2.9055   0.00    0.0
2024/02/01 03:15:00.000   13.021172802   77.570358843   840.0044   5   5   3.4751   8.3776  13.3168  -3.2237   8.7602  -2.9486   0.00    0.0
2024/02/01 03:15:30.000   13.021173917   77.570363036   840.7460   5   5   3.4765   8.4771  13.4928  -3.2579   8.9128  -2.9923   0.00    0.0
2024/02/01 03:16:00.000   13.021173672   77.570363234   840.9724   5   5   3.4780   8.5785  13.6728  -3.2923   9.0680  -3.0368   0.00    0.0
2024/02/01 03:16:30.000   13.021173111   77.570360704   840.5704   5   5   3.4796   8.6821  13.8568  -3.3270   9.2258  -3.0819   0.00    0.0
2024/02/01 03:17:00.000   13.021173787   77.570360322   839.6506   5   5   3.4813   8.7878  14.0448  -3.3621   9.3863  -3.1276   0.00    0.0
2024/02/01 03:17:30.000   13.021175173   77.570364800   841.5967   5   6   3.1673   4.8945   8.0665  -0.8819   2.0137   2.6319   0.00    0.0
2024/02/01 03:18:00.000   13.021172008   77.570367834   841.7330   5   6   3.1655   4.9065   8.1169  -0.8816   2.0659   2.6502   0.00    0.0
2024/02/01 03:18:30.000   13.021174606   77.570360623   840.6161   5   6   3.1638   4.9185   8.1679  -0.8808   2.1173   2.6687   0.00    0.0
2024/02/01 03:19:00.000   13.021173801   77.570366997   841.3729   5   6   3.1622   4.9305   8.2195  -0.8796   2.1679   2.6874   0.00    0.0
2024/02/01 03:19:30.000   13.021175205   77.570379024   843.4280   5   7   3.1386   3.8730   7.2624  -1.3841  -2.6907   2.4181   0.00    0.0
2024/02/01 03:20:00.000   13.021175941   77.570377550   842.2559   5   7   3.1374   3.8756   7.2979  -1.3827  -2.6874   2.4377   0.00    0.0
2024/02/01 03:20:30.000   13.021174798   77.570378136   841.9666   5   7   3.1363   3.8783   7.3338  -1.3811  -2.6842   2.4572   0.00    0.0
2024/02/01 03:21:00.000   13.021174081   77.570379817   842.6161   5   7   3.1353   3.8810   7.3701  -1.3794  -2.6812   2.4769   0.00    0.0
2024/02/01 03:21:30.000   13.021172079   77.570373504   842.2828   5   7   3.1344   3.8838   7.4067  -1.3776  -2.6783   2.4966   0.00    0.0
2024/02/01 03:22:00.000   13.021173302   77.570374408   843.3201   5   7   3.1335   3.8865   7.4436  -1.3757  -2.6755   2.5163   0.00    0.0
2024/02/01 03:22:30.000   13.021172637   77.570375631   843.4968   5   7   3.1328   3.8893   7.4809  -1.3737  -2.6729   2.5361   0.00    0.0
2024/02/01 03:23:00.000   13.021173874   77.570376488   843.3112   5   7   3.1321   3.8922   7.5185  -1.3716  -2.6704   2.5560   0.00    0.0
2024/02/01 03:23:30.000   13.021173449   77.570375663   842.5570   5   7   3.1315   3.8950   7.5565  -1.3693  -2.6680   2.5759   0.00    0.0
2024/02/01 03:24:00.000   13.021174686   77.570374468   842.2797   5   7   3.1310   3.8980   7.5947  -1.3670  -2.6658   2.5959   0.00    0.0
2024/02/01 03:24:30.000   13.021173800   77.570376427   843.4270   5   7   3.1306   3.9009   7.6333  -1.3645  -2.6637   2.6159   0.00    0.0
2024/02/01 03:25:00.000   13.021174371   77.570379302   842.5523   5   7   3.1302   3.9039   7.6721  -1.3620  -2.6617   2.6359   0.00    0.0
2024/02/01 03:25:30.000   13.021174910   77.570372406   843.5460   5   7   3.1300   3.9069   7.7113  -1.3593  -2.6599   2.6560   0.00    0.0
2024/02/01 03:26:00.000   13.021177327   77.570374589   843.6376   5   7   3.1299   3.9099   7.7507  -1.3566  -2.6583   2.6761   0.00    0.0
2024/02/01 03:26:30.000   13.021174328   77.570374216   843.2113   5   7   3.1298   3.9130   7.7903  -1.3537  -2.6568   2.6963   0.00    0.0
2024/02/01 03:27:00.000   13.021176112   77.570374835   842.4465   5   7   3.1298   3.9161   7.8302  -1.3508  -2.6555   2.7165   0.00    0.0
2024/02/01 03:27:30.000   13.021175293   77.570375371   843.4105   5   7   3.1300   3.9192   7.8703  -1.3477  -2.6543   2.7367   0.00    0.0
2024/02/01 03:28:00.000   13.021176584   77.570373179   843.5975   5   7   3.1302   3.9224   7.9107  -1.3446  -2.6533   2.7569   0.00    0.0
2024/02/01 03:28:30.000   13.021173658   77.570377313   843.0137   5   7   3.1305   3.9256   7.9512  -1.3413  -2.6524   2.7771   0.00    0.0
2024/02/01 03:29:00.000   13.021178071   77.570374537   843.6144   5   7   3.1309   3.9288   7.9919  -1.3380  -2.6517   2.7973   0.00    0.0
2024/02/01 03:29:30.000   13.021175048   77.570371444   844.7468   5   7   3.1314   3.9321   8.0327  -1.3346  -2.6512   2.8176   0.00    0.0
2024/02/01 03:30:00.000   13.021176788   77.570373057   843.7747   5   7   3.1320   3.9354   8.0737  -1.3311  -2.6508   2.8378   0.00    0.0
2024/02/01 03:30:30.000   13.021174903   77.570371005   843.3208   5   7   3.1327   3.9388   8.1148  -1.3275  -2.6506   2.8580   0.00    0.0
